{"businesses":[{"name":"New Hong Kong","phone":"(617) 783-3236","address":"14 Tremont St, Brighton, MA","zipcode":"02135","type":"Restaurant","style":"Chinese","delivery":"Yes","sundayHours":"3:00PM - 1:45AM","mondayHours":"3:00PM - 1:45AM","tuesdayHours":"3:00PM - 1:45AM","wednesdayHours":"3:00PM - 1:45AM","thursdayHours":"3:00PM - 1:45AM","fridayHours":"3:00PM - 1:45AM","saturdayHours":"3:00PM - 1:45AM","description":"Straightforward Chinese fast-food counter for takeaway or delivery in a storefront setting.","latitude":42.350449,"longitude":71.168611},{"name":"Cityside Bar","phone":"(617) 566-1002","address":"1960 Beacon St, Brighton, MA","zipcode":"02135","type":"Bar/Restuarant","style":"American/Bar Food","delivery":"No","sundayHours":"10:30AM - 2:00AM","mondayHours":"11:30AM - 2:00AM","tuesdayHours":"11:30AM - 2:00AM","wednesdayHours":"11:30AM - 2:00AM","thursdayHours":"11:30AM - 2:00AM","fridayHours":"11:30AM - 2:00AM","saturdayHours":"10:30AM - 2:00AM","description":"A student-heavy crowd gathers for drinks & pub grub on the roof deck & the game on many TVs.","latitude":42.336462,"longitude":-71.150484},{"name":"Mary Ann's","phone":"(617) 566-3253","address":"1937 Beacon St, Brighton, MA","zipcode":"02135","type":"Bar","style":"Bar Food","delivery":"No","sundayHours":"2:00PM - 2:00AM","mondayHours":"4:00PM - 2:00AM","tuesdayHours":"4:00PM - 2:00AM","wednesdayHours":"4:00PM - 2:00AM","thursdayHours":"4:00PM - 2:00AM","fridayHours":"4:00PM - 2:00AM","saturdayHours":"2:00PM - 2:00AM","description":"Mary Annâ€™s, where every night is amateur night, endures as the paradigm for all college dive bars for all time.","latitude":42.335898,"longitude":-71.149286},{"name":"Pino's Pizza","phone":"(617) 566-6468","address":"1920 Beacon St, Brighton, MA","zipcode":"02135","type":"Restaurant","style":"Italian","delivery":"Yes","sundayHours":"10:00AM - 1:00AM","mondayHours":"10:00AM - 1:00AM","tuesdayHours":"10:00AM - 1:00AM","wednesdayHours":"10:00AM - 1:00AM","thursdayHours":"10:00AM - 1:00AM","fridayHours":"10:00AM - 1:00AM","saturdayHours":"10:00AM - 1:00AM","description":"Thin-crust pies, Sicilian pizza, calzones & more are served at this casual, family-friendly spot.","latitude":42.336619,"longitude":-71.149218},{"name":"Chipotle Mexican Grill","phone":"(617) 232-0788","address":"1924 Beacon St, Brighton, MA","zipcode":"02135","type":"Restaurant","style":"Mexican","delivery":"No","sundayHours":"10:45AM - 10:00PM","mondayHours":"10:45AM - 10:00PM","tuesdayHours":"10:45AM - 10:00PM","wednesdayHours":"10:45AM - 10:00PM","thursdayHours":"10:45AM - 10:00PM","fridayHours":"10:45AM - 10:00PM","saturdayHours":"10:45AM - 10:00PM","description":"An American chain of fast casual restaurants specializing in tacos and Mission-style burritos.","latitude":42.336482,"longitude":-71.149606},{"name":"El Pelon Taqueria","phone":"(617) 779-9090","address":"2197 Commonwealth Avenue, Brighton, MA","zipcode":"02135","type":"Restaurant","style":"Mexican","delivery":"Yes","sundayHours":"11:0AM - 11:00PM","mondayHours":"11:00AM - 11:00PM","tuesdayHours":"11:00AM - 11:00PM","wednesdayHours":"11:00AM - 11:00PM","thursdayHours":"11:00AM - 11:00PM","fridayHours":"11:00AM - 11:00PM","saturdayHours":"11:00AM - 11:00PM","description":"Made-to-order Mexican street eats like fish tacos & beefy burritos are topped with housemade salsas.","latitude":42.340306,"longitude":-71.166491},{"name":"Shake Shack","phone":"(617) 651-3406","address":"49 Boylston St, Chestnut Hill, MA","zipcode":"02467","type":"Restaurant","style":"American","delivery":"No","sundayHours":"11:00AM - 10:00PM","mondayHours":"11:00AM - 10:00PM","tuesdayHours":"11:00AM - 10:00PM","wednesdayHours":"11:00AM - 10:00PM","thursdayHours":"11:00AM - 10:00PM","fridayHours":"11:00AM - 10:00PM","saturdayHours":"11:00AM - 10:00PM","description":"A fast casual restaurant chain. It started out as a food cart inside Madison Square Park in 2004, and its popularity steadily grew.","latitude":42.322626,"longitude":-71.169684},{"name":"Yamato","phone":"(617) 787-8881","address":"117 Chiswick Rd, Brighton, MA","zipcode":"02135","type":"Restaurant","style":"Japanese","delivery":"Yes","sundayHours":"12:00PM - 10:00PM","mondayHours":"11:30AM - 10:00PM","tuesdayHours":"11:30AM - 10:00PM","wednesdayHours":"11:30AM - 10:00PM","thursdayHours":"11:30AM - 10:00PM","fridayHours":"11:30AM - 11:00PM","saturdayHours":"11:30AM - 11:00PM","description":"Japanese eatery & sushi bar with a Friday & Saturday all-you-can-eat buffet in basic quarters.","latitude":42.340687,"longitude":-71.151778},{"name":"Johnny's Luncheonette","phone":"(617) 527-3223","address":"30 Langley Rd, Newton, MA","zipcode":"02459","type":"Restaurant","style":"Diner","delivery":"No","sundayHours":"8:00AM - 8:00PM","mondayHours":"7:00AM - 9:00PM","tuesdayHours":"7:00AM - 9:00PM","wednesdayHours":"7:00AM - 9:00PM","thursdayHours":"7:00AM - 9:00PM","fridayHours":"7:00AM - 9:00PM","saturdayHours":"7:00AM - 9:00PM","description":"A variety of lunch & dinner faves join all-day breakfasts at this diner with nostalgic style.","latitude":42.331035,"longitude":-71.193211},{"name":"Bill's Pizzeria","phone":"(617) 964-1116","address":"753 Beacon St, Newton Centre","zipcode":"02459","type":"Restaurant","style":"Italian","delivery":"Yes","sundayHours":"10:00AM - 10:00PM","mondayHours":"10:00AM - 10:00PM","tuesdayHours":"10:00AM - 10:00PM","wednesdayHours":"10:00AM - 10:00PM","thursdayHours":"10:00AM - 10:00PM","fridayHours":"10:00AM - 10:00PM","saturdayHours":"10:00AM - 10:00PM","description":"Generations-old recipes are served at this lively pizzeria with a popular, whole wheat crust option.","latitude":42.330774,"longitude":-71.191639},{"name":"Frank Pepe's","phone":"(617) 964-7373","address":"199 Boylston St, Chestnut Hill, MA","zipcode":"02467","type":"Restaurant","style":"Italian","delivery":"No","sundayHours":"11:00AM - 10:00PM","mondayHours":"11:00AM - 10:00PM","tuesdayHours":"11:00AM - 10:00PM","wednesdayHours":"11:00AM - 10:00PM","thursdayHours":"11:00AM - 10:00PM","fridayHours":"11:00AM - 10:00PM","saturdayHours":"11:00AM - 10:00PM","description":"Casual local pizzeria chain serving a menu of coal-fired pies, beer & wine since 1925.","latitude":42.321761,"longitude":-71.176165},{"name":"The Cheesecake Factory","phone":"(617) 964-3001","address":"199 Boylston St, Chestnut Hill, MA","zipcode":"02467","type":"Restaurant","style":"American/Italian","delivery":"No","sundayHours":"10:00AM - 11:00PM","mondayHours":"11:00AM - 11:00PM","tuesdayHours":"11:00AM - 11:00PM","wednesdayHours":"11:00AM - 11:00PM","thursdayHours":"11:00AM - 11:00PM","fridayHours":"11:00AM - 12:00PM","saturdayHours":"11:00AM - 12:00PM","description":"The Cheesecake Factory, Inc. is a restaurant company and distributor of cheesecakes based in the United States.","latitude":42.321125,"longitude":-71.175366},{"name":"Deluxe Station Diner","phone":"(617) 244-2550","address":"70 Union St, Newton Centre, MA","zipcode":"02459","type":"Restaurant","style":"Diner","delivery":"No","sundayHours":"7:00AM - 9:00PM","mondayHours":"7:00AM - 9:00PM","tuesdayHours":"7:00AM - 9:00PM","wednesdayHours":"7:00AM - 9:00PM","thursdayHours":"7:00AM - 9:00PM","fridayHours":"7:00AM - 10:00PM","saturdayHours":"7:00AM - 10:00PM","description":"Throwback diner in a renovated train station doling out a varied menu of American classics all day.","latitude":42.329493,"longitude":-71.19245},{"name":"Panera Bread","phone":"(617) 559-9850","address":"1241 Centre St, Newton, MA","zipcode":"02459","type":"Restaurant","style":"Sandwiches/Soups","delivery":"No","sundayHours":"7:00AM - 9:00PM","mondayHours":"6:00AM - 9:00PM","tuesdayHours":"6:00AM - 9:00PM","wednesdayHours":"6:00AM - 9:00PM","thursdayHours":"6:00AM - 9:00PM","fridayHours":"6:00AM - 9:00PM","saturdayHours":"6:00AM - 9:00PM","description":"Counter-serve bakery/cafe chain serving sandwiches, salads & more, known for its bread & free WiFi.","latitude":42.330714,"longitude":-71.194903},{"name":"Tavern In The Sqaure","phone":"(617) 782-8100","address":"161 Brighton Ave, Boston, MA","zipcode":"02134","type":"Bar","style":"Bar Food","delivery":"No","sundayHours":"10:00AM - 2:00AM","mondayHours":"11:30AM - 2:00AM","tuesdayHours":"11:30AM - 2:00AM","wednesdayHours":"11:30AM - 2:00AM","thursdayHours":"11:30AM - 2:00AM","fridayHours":"11:30AM - 2:00AM","saturdayHours":"11:30AM - 2:00AM","description":"American fare, draft beers, patio seats & TV sports are on tap at this casual local chain.","latitude":42.353275,"longitude":-71.132645},{"name":"Five Guys","phone":"(617) 208-6236","address":"1223 Commonwealth Avenue, Boston, MA","zipcode":"02134","type":"Restuarant","style":"Fast Food","delivery":"No","sundayHours":"11:00AM - 2:00AM","mondayHours":"11:00AM - 2:00AM","tuesdayHours":"11:00AM - 2:00AM","wednesdayHours":"11:00AM - 2:00AM","thursdayHours":"11:00AM - 2:00AM","fridayHours":"11:00AM - 2:00AM","saturdayHours":"11:00AM - 2:00AM","description":"Fast-food chain with made-to-order burgers, fries & hot dogs, plus free peanuts while you wait.","latitude":42.350818,"longitude":-71.13089},{"name":"Dumpling Kingdom","phone":"(617) 562-8888","address":"137 Harvard Ave, Allston, MA","zipcode":"02134","type":"Restaurant","style":"Chinese/Taiwanese","delivery":"Yes","sundayHours":"11:00AM - 2:00AM","mondayHours":"11:00AM - 2:00AM","tuesdayHours":"11:00AM - 2:00AM","wednesdayHours":"11:00AM - 2:00AM","thursdayHours":"11:00AM - 2:00AM","fridayHours":"11:00AM - 2:00AM","saturdayHours":"11:00AM - 2:00AM","description":"Steamed soup dumplings & buns, plus a large menu of Chinese and Taiwanese house specialties.","latitude":42.352014,"longitude":-71.132038},{"name":"Eagle's Deli","phone":"(617) 731-3232","address":"1918 Beacon St, Brighton, MA","zipcode":"02135","type":"Restaurant","style":"American","delivery":"Yes","sundayHours":"7:00AM - 9:00PM","mondayHours":"7:00AM - 10:00PM","tuesdayHours":"7:00AM - 10:00PM","wednesdayHours":"7:00AM - 10:00PM","thursdayHours":"7:00AM - 10:00PM","fridayHours":"7:00AM - 10:00PM","saturdayHours":"7:00AM - 10:00PM","description":"Counter-serve deli known for breakfast, burgers & dogs, sandwiches & super-sized 'challenge' meals.","latitude":42.336619,"longitude":-71.149218},{"name":"Sabatino's Italian Kitchen","phone":"(617) 787-9393","address":"1443 Commonwealth Avenue, Brighton, MA","zipcode":"02135","type":"Restaurant","style":"Italian","delivery":"Yes","sundayHours":"10:00AM - 10:30PM","mondayHours":"10:00AM - 10:30PM","tuesdayHours":"10:00AM - 10:30PM","wednesdayHours":"10:00AM - 10:30PM","thursdayHours":"10:00AM - 10:30PM","fridayHours":"10:00AM - 11:00PM","saturdayHours":"10:00AM - 11:00PM","description":"Counter-serve outpost of a small local chain known for pizza, subs & pasta.","latitude":42.348846,"longitude":-71.140415},{"name":"Fin's Sushi & Grill","phone":"(617) 731-0018","address":"354 Chestnut Hill Ave, Brighton, MA","zipcode":"02135","type":"Restaurant","style":"Japanese","delivery":"Yes","sundayHours":"12:00AM - 10:30PM","mondayHours":"11:30AM - 10:30PM","tuesdayHours":"11:30AM - 10:30PM","wednesdayHours":"11:30AM - 10:30PM","thursdayHours":"11:30AM - 10:30PM","fridayHours":"11:30AM - 11:30PM","saturdayHours":"11:30AM - 11:30PM","description":"Stylish outpost with an array of sushi & Japanese entrees, convenient to Boston College.","latitude":42.33688,"longitude":-71.151519},{"name":"White Horse Tavern","phone":"(617) 254-6633","address":"116 Brighton Ave, Boston, MA","zipcode":"02134","type":"Bar","style":"Bar Food","delivery":"No","sundayHours":"11:30AM - 2:00AM","mondayHours":"11:30AM - 2:00AM","tuesdayHours":"11:30AM - 2:00AM","wednesdayHours":"11:30AM - 2:00AM","thursdayHours":"11:30AM - 2:00AM","fridayHours":"11:30AM - 2:00AM","saturdayHours":"11:30AM - 2:00AM","description":"Enduring, vast neighborhood haunt with large pub fare menu, draft beer, billiard tables & trivia.","latitude":42.352629,"longitude":-71.130698}]}